
$GPGGA,151420.0,4228.466444,N,08311.073040,W,1,10,0.6,197.8,M,-34.0,M,,*60

$GNGNS,151420.0,4228.466444,N,08311.073040,W,AA,18,0.6,197.8,-34.0,,*5C

$GPVTG,86.7,T,86.7,M,61.5,N,113.9,K,A*1B

$GPRMC,151420.0,A,4228.466444,N,08311.073040,W,61.5,86.7,290315,0.0,E,A*14

$GPGSA,A,2,01,04,11,12,14,18,22,24,25,31,,,0.9,0.6,0.7*32

$GNGSA,A,2,01,04,11,12,14,18,22,24,25,31,,,0.9,0.6,0.7*2C

$GNGSA,A,2,68,69,70,78,79,80,84,85,,,,,0.9,0.6,0.7*2B

$GPGSV,4,1,13,01,06,326,13,04,24,305,22,11,11,309,19,12,23,087,22*77

$GPGSV,4,2,13,14,64,295,22,18,49,129,18,22,86,178,20,24,27,047,18*78

$GPGSV,4,3,13,25,19,127,13,31,21,206,20,32,14,305,20,51,,,30*45

$GPGSV,4,4,13,21,01,174,*4B

$GLGSV,3,1,11,78,54,052,18,70,07,305,18,80,05,191,16,79,56,158,19*62

$GLGSV,3,2,11,69,56,336,22,84,12,261,14,85,15,309,23,67,04,111,10*66

$GLGSV,3,3,11,68,51,085,24,86,01,355,,77,07,025,*58

$GPGGA,151421.0,4228.468357,N,08311.049524,W,1,10,0.6,197.6,M,-34.0,M,,*6A

$GNGNS,151421.0,4228.468357,N,08311.049524,W,AA,18,0.6,197.6,-34.0,,*56

$GPVTG,86.2,T,86.2,M,63.2,N,117.0,K,A*13

$GPRMC,151421.0,A,4228.468357,N,08311.049524,W,63.2,86.2,290315,0.0,E,A*10

$GPGSA,A,2,01,04,11,12,14,18,22,24,25,31,,,0.9,0.6,0.7*32

$GNGSA,A,2,01,04,11,12,14,18,22,24,25,31,,,0.9,0.6,0.7*2C

$GNGSA,A,2,68,69,70,78,79,80,84,85,,,,,0.9,0.6,0.7*2B

$GPGSV,4,1,13,01,06,326,13,04,24,305,20,11,11,309,19,12,23,087,29*7E

$GPGSV,4,2,13,14,64,295,25,18,49,129,22,22,86,178,22,24,27,047,22*7D

$GPGSV,4,3,13,25,19,127,13,31,21,206,20,32,14,305,20,51,,,30*45

$GPGSV,4,4,13,21,01,174,*4B

$GLGSV,3,1,11,78,54,052,16,70,07,305,18,80,05,191,16,79,56,158,21*67

$GLGSV,3,2,11,69,56,336,22,84,12,261,12,85,15,309,23,67,04,111,10*60

$GLGSV,3,3,11,68,51,085,28,86,01,355,,77,07,025,*54

$GPGGA,151422.0,4228.469674,N,08311.026042,W,1,10,0.7,197.1,M,-34.0,M,,*66

$GNGNS,151422.0,4228.469674,N,08311.026042,W,AA,17,0.7,197.1,-34.0,,*55

$GPVTG,86.3,T,86.3,M,63.9,N,118.3,K,A*14

$GPRMC,151422.0,A,4228.469674,N,08311.026042,W,63.9,86.3,290315,0.0,E,A*10

$GPGSA,A,2,01,04,11,12,14,18,22,24,25,31,,,1.0,0.7,0.7*3B

$GNGSA,A,2,01,04,11,12,14,18,22,24,25,31,,,1.0,0.7,0.7*25

$GNGSA,A,2,68,69,70,78,79,84,85,,,,,,1.0,0.7,0.7*2A

$GPGSV,4,1,13,01,06,326,13,04,24,305,22,11,11,309,19,12,23,087,28*7D

$GPGSV,4,2,13,14,64,295,25,18,49,129,21,22,86,178,22,24,27,047,20*7C

$GPGSV,4,3,13,25,19,127,13,31,21,206,16,32,14,305,18,51,,,30*4B

$GPGSV,4,4,13,21,01,174,*4B

$GLGSV,3,1,11,78,54,052,18,70,07,305,18,80,05,191,16,79,56,158,20*68

$GLGSV,3,2,11,69,56,336,23,84,12,261,12,85,15,309,24,67,04,111,10*66

$GLGSV,3,3,11,68,51,085,28,86,01,355,,77,07,025,*54

$GPGGA,151423.0,4228.469163,N,08311.002940,W,1,10,0.7,194.6,M,-34.0,M,,*6F

$GNGNS,151423.0,4228.469163,N,08311.002940,W,AA,17,0.7,194.6,-34.0,,*5C

$GPVTG,87.0,T,87.0,M,65.0,N,120.3,K,A*10

$GPRMC,151423.0,A,4228.469163,N,08311.002940,W,65.0,87.0,290315,0.0,E,A*10

$GPGSA,A,2,01,04,11,12,14,18,22,24,25,31,,,1.0,0.7,0.7*3B

$GNGSA,A,2,01,04,11,12,14,18,22,24,25,31,,,1.0,0.7,0.7*25

$GNGSA,A,2,68,69,70,78,79,84,85,,,,,,1.0,0.7,0.7*2A

$GPGSV,4,1,13,01,06,326,12,04,24,305,24,11,11,309,23,12,23,087,30*7A

$GPGSV,4,2,13,14,64,295,26,18,49,129,23,22,86,178,24,24,27,047,19*71

$GPGSV,4,3,13,25,19,127,13,31,21,206,19,32,14,305,21,51,,,30*4E

$GPGSV,4,4,13,21,01,174,*4B

$GLGSV,3,1,11,78,54,052,18,70,07,305,16,80,05,191,16,79,56,158,21*67

$GLGSV,3,2,11,69,56,336,24,84,12,261,12,85,15,309,27,67,04,111,10*62

$GLGSV,3,3,11,68,51,085,29,86,01,355,,77,07,025,*55

$GPGGA,151424.0,4228.467114,N,08310.979620,W,1,10,0.7,194.7,M,-34.0,M,,*6A

$GNGNS,151424.0,4228.467114,N,08310.979620,W,AA,17,0.7,194.7,-34.0,,*59

$GPVTG,88.2,T,88.2,M,64.3,N,119.0,K,A*1B

$GPRMC,151424.0,A,4228.467114,N,08310.979620,W,64.3,88.2,290315,0.0,E,A*1B

$GPGSA,A,2,01,04,11,12,14,18,22,24,25,31,,,1.0,0.7,0.7*3B

$GNGSA,A,2,01,04,11,12,14,18,22,24,25,31,,,1.0,0.7,0.7*25

$GNGSA,A,2,68,69,70,78,79,84,85,,,,,,1.0,0.7,0.7*2A

$GPGSV,4,1,13,01,06,326,12,04,24,305,22,11,11,309,21,12,23,087,30*7E

$GPGSV,4,2,13,14,64,295,24,18,49,129,20,22,86,178,22,24,27,047,19*76

$GPGSV,4,3,13,25,19,127,13,31,21,206,19,32,14,305,21,51,,,30*4E

$GPGSV,4,4,13,21,01,174,*4B

$GLGSV,3,1,11,78,54,052,18,70,07,305,18,80,05,191,16,79,56,158,20*68

$GLGSV,3,2,11,69,56,336,21,84,12,261,12,85,15,309,24,67,04,111,10*64

$GLGSV,3,3,11,68,51,085,25,86,01,355,,77,07,025,*59

$GPGGA,151425.0,4228.467653,N,08310.954022,W,1,10,0.7,197.0,M,-34.0,M,,*60

$GNGNS,151425.0,4228.467653,N,08310.954022,W,AA,17,0.7,197.0,-34.0,,*53

$GPVTG,87.9,T,87.9,M,64.8,N,120.0,K,A*1A

$GPRMC,151425.0,A,4228.467653,N,08310.954022,W,64.8,87.9,290315,0.0,E,A*1A

$GPGSA,A,2,01,04,11,12,14,18,22,24,25,31,,,1.0,0.7,0.7*3B

$GNGSA,A,2,01,04,11,12,14,18,22,24,25,31,,,1.0,0.7,0.7*25

$GNGSA,A,2,68,69,70,78,79,84,85,,,,,,1.0,0.7,0.7*2A

$GPGSV,4,1,13,01,06,326,12,04,24,303,22,11,11,307,21,12,23,087,25*72

$GPGSV,4,2,13,14,65,295,21,18,48,130,19,22,85,178,20,24,27,047,16*7F

$GPGSV,4,3,13,25,19,127,13,31,21,208,19,32,14,305,21,51,,,30*40

$GPGSV,4,4,13,21,01,174,*4B

$GLGSV,3,1,11,78,54,052,18,70,07,305,18,80,05,191,16,79,56,158,17*6C

$GLGSV,3,2,11,69,56,336,20,84,12,261,12,85,15,309,24,67,04,111,10*65

$GLGSV,3,3,11,68,51,085,26,86,01,355,,77,07,025,*5A

$GPGGA,151426.0,4228.468359,N,08310.928531,W,1,10,0.7,196.2,M,-34.0,M,,*6C

$GNGNS,151426.0,4228.468359,N,08310.928531,W,AA,17,0.7,196.2,-34.0,,*5F

$GPVTG,87.0,T,87.0,M,67.3,N,124.6,K,A*10

$GPRMC,151426.0,A,4228.468359,N,08310.928531,W,67.3,87.0,290315,0.0,E,A*14

$GPGSA,A,2,01,04,11,12,14,18,22,24,25,31,,,1.0,0.7,0.7*3B

$GNGSA,A,2,01,04,11,12,14,18,22,24,25,31,,,1.0,0.7,0.7*25

$GNGSA,A,2,68,69,70,78,79,84,85,,,,,,1.0,0.7,0.7*2A

$GPGSV,4,1,13,01,06,326,12,04,24,303,20,11,11,307,17,12,23,087,29*79

$GPGSV,4,2,13,14,65,295,24,18,48,130,22,22,85,178,23,24,27,047,18*7F

$GPGSV,4,3,13,25,19,127,13,31,21,208,19,32,14,305,21,51,,,30*40

$GPGSV,4,4,13,21,01,174,*4B

$GLGSV,3,1,11,78,54,052,18,70,07,305,18,80,05,191,16,79,56,158,21*69

$GLGSV,3,2,11,69,56,336,23,84,12,261,12,85,15,309,22,67,04,111,10*60

$GLGSV,3,3,11,68,51,085,28,86,01,355,,77,07,025,*54

$GPGGA,151427.0,4228.470106,N,08310.902990,W,1,10,0.7,198.7,M,-34.0,M,,*68

$GNGNS,151427.0,4228.470106,N,08310.902990,W,AA,17,0.7,198.7,-34.0,,*5B

$GPVTG,86.8,T,86.8,M,67.3,N,124.7,K,A*11

$GPRMC,151427.0,A,4228.470106,N,08310.902990,W,67.3,86.8,290315,0.0,E,A*12

$GPGSA,A,2,01,04,11,12,14,18,22,24,25,31,,,1.0,0.7,0.7*3B

$GNGSA,A,2,01,04,11,12,14,18,22,24,25,31,,,1.0,0.7,0.7*25

$GNGSA,A,2,68,69,70,78,79,84,85,,,,,,1.0,0.7,0.7*2A

$GPGSV,4,1,13,01,06,326,12,04,24,303,23,11,11,307,23,12,23,087,29*7D

$GPGSV,4,2,13,14,65,295,25,18,48,130,24,22,85,178,22,24,27,047,20*72

$GPGSV,4,3,13,25,19,127,13,31,21,208,19,32,14,305,17,51,,,30*45

$GPGSV,4,4,13,21,01,174,*4B

$GLGSV,3,1,11,78,54,052,18,70,07,305,16,80,05,191,16,79,56,158,20*66

$GLGSV,3,2,11,69,56,336,23,84,12,261,12,85,15,309,26,67,04,111,10*64

$GLGSV,3,3,11,68,51,085,28,86,01,355,,77,07,025,*54

$GPGGA,151428.0,4228.471437,N,08310.879688,W,1,09,0.7,199.0,M,-34.0,M,,*64

$GNGNS,151428.0,4228.471437,N,08310.879688,W,AA,16,0.7,199.0,-34.0,,*5E

$GPVTG,86.4,T,86.4,M,65.3,N,121.0,K,A*11

$GPRMC,151428.0,A,4228.471437,N,08310.879688,W,65.3,86.4,290315,0.0,E,A*1E

$GPGSA,A,2,01,04,11,12,14,18,22,24,31,,,,1.0,0.7,0.7*3C

$GNGSA,A,2,01,04,11,12,14,18,22,24,31,,,,1.0,0.7,0.7*22

$GNGSA,A,2,68,69,70,78,79,84,85,,,,,,1.0,0.7,0.7*2A

$GPGSV,4,1,13,01,06,326,12,04,24,303,20,11,11,307,23,12,23,087,23*74

$GPGSV,4,2,13,14,65,295,24,18,48,130,21,22,85,178,22,24,27,047,20*76

$GPGSV,4,3,13,25,19,127,13,31,21,208,19,32,14,305,21,51,,,30*40

$GPGSV,4,4,13,21,01,174,*4B

$GLGSV,3,1,11,78,54,052,12,70,07,305,19,80,05,191,16,79,56,158,18*68

$GLGSV,3,2,11,69,56,336,22,84,12,261,12,85,15,309,26,67,04,111,10*65

$GLGSV,3,3,11,68,51,085,26,86,01,355,,77,07,025,*5A

$GPGGA,151429.0,4228.471565,N,08310.855573,W,1,09,0.7,198.3,M,-34.0,M,,*68

$GNGNS,151429.0,4228.471565,N,08310.855573,W,AA,16,0.7,198.3,-34.0,,*52

$GPVTG,86.5,T,86.5,M,65.6,N,121.6,K,A*12

$GPRMC,151429.0,A,4228.471565,N,08310.855573,W,65.6,86.5,290315,0.0,E,A*14

$GPGSA,A,2,01,04,11,12,14,18,22,24,31,,,,1.0,0.7,0.7*3C

$GNGSA,A,2,01,04,11,12,14,18,22,24,31,,,,1.0,0.7,0.7*22

$GNGSA,A,2,68,69,70,78,79,84,85,,,,,,1.0,0.7,0.7*2A

$GPGSV,4,1,13,01,06,326,12,04,24,303,20,11,11,307,23,12,23,087,28*7F

$GPGSV,4,2,13,14,65,295,22,18,48,130,20,22,85,178,20,24,27,047,19*79

$GPGSV,4,3,13,25,19,127,13,31,21,208,19,32,14,305,21,51,,,30*40

$GPGSV,4,4,13,21,01,174,*4B

$GLGSV,3,1,11,78,54,052,12,70,07,305,19,80,05,191,16,79,56,158,18*68

$GLGSV,3,2,11,69,56,336,21,84,12,261,12,85,15,309,26,67,04,111,10*66

$GLGSV,3,3,11,68,51,085,27,86,01,355,,77,07,025,*5B

$GPGGA,151430.0,4228.472314,N,08310.830566,W,1,09,0.7,198.7,M,-34.0,M,,*60

$GNGNS,151430.0,4228.472314,N,08310.830566,W,AA,16,0.7,198.7,-34.0,,*5A

$GPVTG,86.7,T,86.7,M,66.7,N,123.4,K,A*10

$GPRMC,151430.0,A,4228.472314,N,08310.830566,W,66.7,86.7,290315,0.0,E,A*18

$GPGSA,A,2,01,04,11,12,14,18,22,24,31,,,,1.0,0.7,0.7*3C

$GNGSA,A,2,01,04,11,12,14,18,22,24,31,,,,1.0,0.7,0.7*22

$GNGSA,A,2,68,69,70,78,79,84,85,,,,,,1.0,0.7,0.7*2A

$GPGSV,4,1,13,01,06,326,12,04,24,303,22,11,11,307,18,12,23,087,29*74

$GPGSV,4,2,13,14,65,295,25,18,48,130,24,22,85,178,23,24,27,047,21*72

$GPGSV,4,3,13,25,19,127,13,31,21,208,14,32,14,305,18,51,,,30*47

$GPGSV,4,4,13,21,01,174,*4B

$GLGSV,3,1,11,78,54,052,12,70,07,305,16,80,05,191,16,79,56,158,20*6C

$GLGSV,3,2,11,69,56,336,23,84,12,261,12,85,15,309,22,67,04,111,10*60

$GLGSV,3,3,11,68,51,085,29,86,01,355,,77,07,025,*55

$GPGGA,151431.0,4228.474770,N,08310.804824,W,1,09,0.7,199.4,M,-34.0,M,,*6F

$GNGNS,151431.0,4228.474770,N,08310.804824,W,AA,16,0.7,199.4,-34.0,,*55

$GPVTG,86.3,T,86.3,M,66.6,N,123.4,K,A*11

$GPRMC,151431.0,A,4228.474770,N,08310.804824,W,66.6,86.3,290315,0.0,E,A*10

$GPGSA,A,2,01,04,11,12,14,18,22,24,31,,,,1.0,0.7,0.7*3C

$GNGSA,A,2,01,04,11,12,14,18,22,24,31,,,,1.0,0.7,0.7*22

$GNGSA,A,2,68,69,70,78,79,84,85,,,,,,1.0,0.7,0.7*2A

$GPGSV,4,1,13,01,06,326,12,04,24,303,22,11,11,307,22,12,23,087,29*7D

$GPGSV,4,2,13,14,65,295,26,18,48,130,24,22,85,178,24,24,27,047,23*74

$GPGSV,4,3,13,25,19,127,13,31,21,208,21,32,14,305,22,51,,,30*48

$GPGSV,4,4,13,21,01,174,*4B

$GLGSV,3,1,11,78,54,052,15,70,07,305,16,80,05,191,16,79,56,158,22*69

$GLGSV,3,2,11,69,56,336,24,84,12,261,12,85,15,309,25,67,04,111,10*60

$GLGSV,3,3,11,68,51,085,29,86,01,355,,77,07,025,*55

$GPGGA,151432.0,4228.474014,N,08310.781762,W,1,08,0.8,196.8,M,-34.0,M,,*6B

$GNGNS,151432.0,4228.474014,N,08310.781762,W,AA,15,0.8,196.8,-34.0,,*53

$GPVTG,87.2,T,87.2,M,65.1,N,120.5,K,A*17

$GPRMC,151432.0,A,4228.474014,N,08310.781762,W,65.1,87.2,290315,0.0,E,A*1D

$GPGSA,A,2,04,11,12,14,18,22,24,31,,,,,1.1,0.8,0.7*33

$GNGSA,A,2,04,11,12,14,18,22,24,31,,,,,1.1,0.8,0.7*2D

$GNGSA,A,2,68,69,70,78,79,84,85,,,,,,1.1,0.8,0.7*24

$GPGSV,4,1,13,01,06,326,12,04,24,303,23,11,11,307,22,12,23,087,28*7D

$GPGSV,4,2,13,14,65,295,25,18,48,130,24,22,85,178,23,24,27,047,22*71

$GPGSV,4,3,13,25,19,127,13,31,21,208,21,32,14,305,22,51,,,30*48

$GPGSV,4,4,13,21,01,174,*4B

$GLGSV,3,1,11,78,54,052,15,70,07,305,16,80,05,191,16,79,56,158,20*6B

$GLGSV,3,2,11,69,56,336,23,84,12,261,12,85,15,309,23,67,04,111,10*61

$GLGSV,3,3,11,68,51,085,29,86,01,355,,77,07,025,*55

$GPGGA,151433.0,4228.476018,N,08310.756592,W,1,08,0.8,198.1,M,-34.0,M,,*64

$GNGNS,151433.0,4228.476018,N,08310.756592,W,AA,15,0.8,198.1,-34.0,,*5C

$GPVTG,87.1,T,87.1,M,64.6,N,119.6,K,A*18

$GPRMC,151433.0,A,4228.476018,N,08310.756592,W,64.6,87.1,290315,0.0,E,A*10

$GPGSA,A,2,04,11,12,14,18,22,24,31,,,,,1.1,0.8,0.7*33

$GNGSA,A,2,04,11,12,14,18,22,24,31,,,,,1.1,0.8,0.7*2D

$GNGSA,A,2,68,69,70,78,79,84,85,,,,,,1.1,0.8,0.7*24

$GPGSV,4,1,13,01,06,326,12,04,24,303,23,11,11,307,21,12,23,087,28*7E

$GPGSV,4,2,13,14,65,295,24,18,48,130,23,22,85,178,22,24,27,047,20*74

$GPGSV,4,3,13,25,19,127,13,31,21,208,24,32,14,305,20,51,,,30*4F

$GPGSV,4,4,13,21,01,174,*4B

$GLGSV,3,1,11,78,54,052,16,70,07,305,16,80,05,191,16,79,56,158,19*62

$GLGSV,3,2,11,69,56,336,22,84,12,261,12,85,15,309,25,67,04,111,10*66

$GLGSV,3,3,11,68,51,085,29,86,01,355,,77,07,025,*55

$GPGGA,151434.0,4228.475501,N,08310.732786,W,1,08,0.8,197.6,M,-34.0,M,,*60

$GNGNS,151434.0,4228.475501,N,08310.732786,W,AA,15,0.8,197.6,-34.0,,*58

$GPVTG,88.1,T,88.1,M,63.7,N,118.0,K,A*19

$GPRMC,151434.0,A,4228.475501,N,08310.732786,W,63.7,88.1,290315,0.0,E,A*15

$GPGSA,A,2,04,11,12,14,18,22,24,31,,,,,1.1,0.8,0.7*33

$GNGSA,A,2,04,11,12,14,18,22,24,31,,,,,1.1,0.8,0.7*2D

$GNGSA,A,2,68,69,70,78,79,84,85,,,,,,1.1,0.8,0.7*24

$GPGSV,4,1,13,01,06,326,12,04,24,303,21,11,11,307,21,12,23,087,28*7C

$GPGSV,4,2,13,14,65,295,25,18,48,130,22,22,85,178,23,24,27,047,22*77

$GPGSV,4,3,13,25,19,127,13,31,21,208,25,32,14,305,21,51,,,30*4F

$GPGSV,4,4,13,21,01,174,*4B

$GLGSV,3,1,11,78,54,052,16,70,07,305,16,80,05,191,16,79,56,158,19*62

$GLGSV,3,2,11,69,56,336,22,84,12,261,12,85,15,309,24,67,04,111,10*67

$GLGSV,3,3,11,68,51,085,29,86,01,355,,77,07,025,*55

$GPGGA,151435.0,4228.472613,N,08310.711308,W,1,08,0.8,195.6,M,-34.0,M,,*67

$GNGNS,151435.0,4228.472613,N,08310.711308,W,AA,15,0.8,195.6,-34.0,,*5F

$GPVTG,89.8,T,89.8,M,62.4,N,115.6,K,A*10

$GPRMC,151435.0,A,4228.472613,N,08310.711308,W,62.4,89.8,290315,0.0,E,A*1A

$GPGSA,A,2,04,11,12,14,18,22,24,31,,,,,1.1,0.8,0.7*33

$GNGSA,A,2,04,11,12,14,18,22,24,31,,,,,1.1,0.8,0.7*2D

$GNGSA,A,2,68,69,70,78,79,84,85,,,,,,1.1,0.8,0.7*24

$GPGSV,4,1,13,01,06,326,12,04,24,303,22,11,11,307,23,12,23,087,28*7D

$GPGSV,4,2,13,14,65,295,26,18,48,130,23,22,85,178,23,24,27,047,20*77

$GPGSV,4,3,13,25,19,127,13,31,21,208,26,32,14,305,20,51,,,30*4D

$GPGSV,4,4,13,21,01,174,*4B

$GLGSV,3,1,11,78,54,052,16,70,07,305,16,80,05,191,16,79,56,158,21*69

$GLGSV,3,2,11,69,56,336,23,84,12,261,12,85,15,309,25,67,04,111,10*67

$GLGSV,3,3,11,68,51,085,29,86,01,355,,77,07,025,*55

$GPGGA,151436.0,4228.475754,N,08310.687823,W,1,08,0.8,195.7,M,-34.0,M,,*6C

$GNGNS,151436.0,4228.475754,N,08310.687823,W,AA,15,0.8,195.7,-34.0,,*54

$GPVTG,87.5,T,87.5,M,62.5,N,115.8,K,A*1F

$GPRMC,151436.0,A,4228.475754,N,08310.687823,W,62.5,87.5,290315,0.0,E,A*12

$GPGSA,A,2,04,11,12,14,18,22,24,31,,,,,1.1,0.8,0.7*33

$GNGSA,A,2,04,11,12,14,18,22,24,31,,,,,1.1,0.8,0.7*2D

$GNGSA,A,2,68,69,70,78,79,84,85,,,,,,1.1,0.8,0.7*24

$GPGSV,4,1,13,01,06,326,12,04,24,303,22,11,11,307,23,12,23,087,28*7D

$GPGSV,4,2,13,14,65,295,24,18,48,130,22,22,85,178,22,24,27,047,18*7E

$GPGSV,4,3,13,25,19,127,13,31,21,208,26,32,14,305,21,51,,,30*4C

$GPGSV,4,4,13,21,01,174,*4B

$GLGSV,3,1,10,78,54,052,16,70,07,305,19,80,05,191,16,79,56,158,21*67

$GLGSV,3,2,10,69,56,336,23,84,12,261,15,85,15,309,25,68,51,085,27*66

$GLGSV,3,3,10,86,01,355,,77,07,025,*68

$GPGGA,151437.0,4228.476165,N,08310.664248,W,1,08,0.8,196.4,M,-34.0,M,,*60

$GNGNS,151437.0,4228.476165,N,08310.664248,W,AA,15,0.8,196.4,-34.0,,*58

$GPVTG,87.9,T,87.9,M,62.9,N,116.6,K,A*1E

$GPRMC,151437.0,A,4228.476165,N,08310.664248,W,62.9,87.9,290315,0.0,E,A*1E

$GPGSA,A,2,04,11,12,14,18,22,24,31,,,,,1.1,0.8,0.7*33

$GNGSA,A,2,04,11,12,14,18,22,24,31,,,,,1.1,0.8,0.7*2D

$GNGSA,A,2,68,69,70,78,79,84,85,,,,,,1.1,0.8,0.7*24

$GPGSV,4,1,13,01,06,326,12,04,24,303,23,11,11,307,23,12,23,087,28*7C

$GPGSV,4,2,13,14,65,295,25,18,48,130,22,22,85,178,21,24,27,047,20*77

$GPGSV,4,3,13,25,19,127,14,31,21,208,24,32,14,305,20,51,,,30*48

$GPGSV,4,4,13,21,01,174,*4B

$GLGSV,3,1,11,78,54,052,17,70,07,305,20,80,05,191,16,79,56,158,22*6E

$GLGSV,3,2,11,69,56,336,22,84,12,261,15,85,15,309,24,68,51,085,27*67

$GLGSV,3,3,11,86,01,355,,77,07,025,,67,04,111,*5D

$GPGGA,151438.0,4228.477533,N,08310.642380,W,1,09,0.7,193.9,M,-34.0,M,,*6E

$GNGNS,151438.0,4228.477533,N,08310.642380,W,AA,16,0.7,193.9,-34.0,,*54

$GPVTG,87.4,T,87.4,M,62.5,N,115.7,K,A*10

$GPRMC,151438.0,A,4228.477533,N,08310.642380,W,62.5,87.4,290315,0.0,E,A*17

$GPGSA,A,2,04,11,12,14,18,22,24,25,31,,,,1.0,0.7,0.7*3A

$GNGSA,A,2,04,11,12,14,18,22,24,25,31,,,,1.0,0.7,0.7*24

$GNGSA,A,2,68,69,70,78,79,84,85,,,,,,1.0,0.7,0.7*2A

$GPGSV,4,1,13,01,06,326,12,04,24,303,21,11,11,307,23,12,23,087,29*7F

$GPGSV,4,2,13,14,65,295,25,18,48,130,22,22,85,178,21,24,27,047,19*7D

$GPGSV,4,3,13,25,19,127,14,31,21,208,25,32,14,305,21,51,,,30*48

$GPGSV,4,4,13,21,01,174,*4B

$GLGSV,3,1,10,78,54,052,17,70,07,305,20,79,56,158,21,69,56,336,24*63

$GLGSV,3,2,10,84,12,261,15,85,15,309,23,68,51,085,28,86,01,355,*68

$GLGSV,3,3,10,77,07,025,,67,04,111,*60

$GPGGA,151439.0,4228.476108,N,08310.619540,W,1,09,0.7,193.6,M,-34.0,M,,*69

$GNGNS,151439.0,4228.476108,N,08310.619540,W,AA,16,0.7,193.6,-34.0,,*53

$GPVTG,89.0,T,89.0,M,62.7,N,116.1,K,A*17

$GPRMC,151439.0,A,4228.476108,N,08310.619540,W,62.7,89.0,290315,0.0,E,A*17

$GPGSA,A,2,04,11,12,14,18,22,24,25,31,,,,1.0,0.7,0.7*3A

$GNGSA,A,2,04,11,12,14,18,22,24,25,31,,,,1.0,0.7,0.7*24

$GNGSA,A,2,68,69,70,78,79,84,85,,,,,,1.0,0.7,0.7*2A

$GPGSV,4,1,13,01,06,326,12,04,24,303,23,11,11,307,23,12,23,087,28*7C

$GPGSV,4,2,13,14,65,295,25,18,48,130,23,22,85,178,22,24,27,047,18*7E

$GPGSV,4,3,13,25,19,127,14,31,21,208,24,32,14,305,20,51,,,30*48

$GPGSV,4,4,13,21,01,174,*4B

$GLGSV,3,1,11,78,54,052,16,70,07,305,20,79,56,158,20,69,56,336,23*65

$GLGSV,3,2,11,84,12,261,15,85,15,309,24,68,51,085,28,86,01,355,*6E

$GLGSV,3,3,11,77,07,025,,80,05,191,,67,04,111,*55

$GPGGA,151440.0,4228.476424,N,08310.596285,W,1,09,0.7,195.0,M,-34.0,M,,*66

$GNGNS,151440.0,4228.476424,N,08310.596285,W,AA,16,0.7,195.0,-34.0,,*5C

$GPVTG,88.7,T,88.7,M,63.3,N,117.2,K,A*10

$GPRMC,151440.0,A,4228.476424,N,08310.596285,W,63.3,88.7,290315,0.0,E,A*1B

$GPGSA,A,2,04,11,12,14,18,22,24,25,31,,,,1.0,0.7,0.7*3A

$GNGSA,A,2,04,11,12,14,18,22,24,25,31,,,,1.0,0.7,0.7*24

$GNGSA,A,2,68,69,70,78,79,84,85,,,,,,1.0,0.7,0.7*2A

$GPGSV,4,1,13,01,06,326,12,04,24,303,23,11,11,307,22,12,23,087,29*7C

$GPGSV,4,2,13,14,65,295,25,18,48,130,23,22,85,178,24,24,27,047,19*79

$GPGSV,4,3,13,25,19,127,15,31,21,208,23,32,14,305,20,51,,,30*4E

$GPGSV,4,4,13,21,01,174,*4B

$GLGSV,3,1,11,78,54,052,16,70,07,305,16,79,56,158,22,69,56,336,23*62

$GLGSV,3,2,11,84,12,261,15,85,15,309,25,68,51,085,29,86,01,355,*6E

$GLGSV,3,3,11,77,07,025,,80,05,191,,67,04,111,*55

$GPGGA,151441.0,4228.476410,N,08310.572024,W,1,09,0.7,194.5,M,-34.0,M,,*67

$GNGNS,151441.0,4228.476410,N,08310.572024,W,AA,16,0.7,194.5,-34.0,,*5D

$GPVTG,88.9,T,88.9,M,63.5,N,117.6,K,A*12

$GPRMC,151441.0,A,4228.476410,N,08310.572024,W,63.5,88.9,290315,0.0,E,A*16

$GPGSA,A,2,04,11,12,14,18,22,24,25,31,,,,1.0,0.7,0.7*3A

$GNGSA,A,2,04,11,12,14,18,22,24,25,31,,,,1.0,0.7,0.7*24

$GNGSA,A,2,68,69,70,78,79,84,85,,,,,,1.0,0.7,0.7*2A

$GPGSV,4,1,13,01,06,326,12,04,24,303,22,11,11,307,22,12,23,087,28*7C

$GPGSV,4,2,13,14,65,295,25,18,48,130,24,22,85,178,23,24,27,047,18*78

$GPGSV,4,3,13,25,19,127,15,31,21,208,24,32,14,305,20,51,,,30*49

$GPGSV,4,4,13,21,01,174,*4B

$GLGSV,3,1,11,78,54,052,16,70,07,305,19,79,56,158,20,69,56,336,24*68

$GLGSV,3,2,11,84,12,261,13,85,15,309,24,68,51,085,28,86,01,355,*68

$GLGSV,3,3,11,77,07,025,,80,05,191,,67,04,111,*55

$GPGGA,151442.0,4228.478746,N,08310.547157,W,1,09,0.7,197.7,M,-34.0,M,,*68

$GNGNS,151442.0,4228.478746,N,08310.547157,W,AA,16,0.7,197.7,-34.0,,*52

$GPVTG,87.3,T,87.3,M,64.5,N,119.5,K,A*18

$GPRMC,151442.0,A,4228.478746,N,08310.547157,W,64.5,87.3,290315,0.0,E,A*1A

$GPGSA,A,2,04,11,12,14,18,22,24,25,31,,,,1.0,0.7,0.7*3A

$GNGSA,A,2,04,11,12,14,18,22,24,25,31,,,,1.0,0.7,0.7*24

$GNGSA,A,2,68,69,70,78,79,84,85,,,,,,1.0,0.7,0.7*2A

$GPGSV,4,1,13,01,06,326,12,04,24,303,22,11,11,307,22,12,23,087,29*7D

$GPGSV,4,2,13,14,65,295,25,18,48,130,22,22,85,178,23,24,27,047,18*7E

$GPGSV,4,3,13,25,19,127,15,31,21,208,23,32,14,305,18,51,,,30*45

$GPGSV,4,4,13,21,01,174,*4B

$GLGSV,3,1,11,78,54,052,16,70,07,305,19,79,56,158,20,69,56,336,23*6F

$GLGSV,3,2,11,84,12,261,13,85,15,309,22,68,51,085,29,86,01,355,*6F

$GLGSV,3,3,11,77,07,025,,80,05,191,,67,04,111,*55

$GPGGA,151443.0,4228.481879,N,08310.523325,W,1,09,0.7,196.6,M,-34.0,M,,*69

$GNGNS,151443.0,4228.481879,N,08310.523325,W,AA,16,0.7,196.6,-34.0,,*53

$GPVTG,85.2,T,85.2,M,64.3,N,119.0,K,A*1B

$GPRMC,151443.0,A,4228.481879,N,08310.523325,W,64.3,85.2,290315,0.0,E,A*1E

$GPGSA,A,2,04,11,12,14,18,22,24,25,31,,,,1.0,0.7,0.7*3A

$GNGSA,A,2,04,11,12,14,18,22,24,25,31,,,,1.0,0.7,0.7*24

$GNGSA,A,2,68,69,70,78,79,84,85,,,,,,1.0,0.7,0.7*2A

$GPGSV,3,1,12,04,24,303,22,11,11,307,21,12,23,087,29,14,65,295,25*74

$GPGSV,3,2,12,18,48,130,22,22,85,178,23,24,27,047,17,25,19,127,15*77

$GPGSV,3,3,12,31,21,208,23,32,14,305,19,51,,,30,21,01,174,*4D

$GLGSV,3,1,11,78,54,052,17,70,07,305,19,79,56,158,19,69,56,336,23*64

$GLGSV,3,2,11,84,12,261,13,85,15,309,23,68,51,085,29,86,01,355,*6E

$GLGSV,3,3,11,77,07,025,,80,05,191,,67,04,111,*55

$GPGGA,151444.0,4228.485067,N,08310.500574,W,1,09,0.7,194.0,M,-34.0,M,,*6A

$GNGNS,151444.0,4228.485067,N,08310.500574,W,AA,16,0.7,194.0,-34.0,,*50

$GPVTG,83.4,T,83.4,M,63.5,N,117.5,K,A*11

$GPRMC,151444.0,A,4228.485067,N,08310.500574,W,63.5,83.4,290315,0.0,E,A*18

$GPGSA,A,2,04,11,12,14,18,22,24,25,31,,,,1.0,0.7,0.7*3A

$GNGSA,A,2,04,11,12,14,18,22,24,25,31,,,,1.0,0.7,0.7*24

$GNGSA,A,2,68,69,70,78,79,84,85,,,,,,1.0,0.7,0.7*2A

$GPGSV,4,1,13,04,24,303,22,11,11,307,22,12,23,087,29,14,65,295,25*71

$GPGSV,4,2,13,18,48,130,24,22,85,178,23,24,27,047,18,25,19,127,15*78

$GPGSV,4,3,13,31,21,208,26,32,14,305,18,51,,,30,01,06,326,*4F

$GPGSV,4,4,13,21,01,174,*4B

$GLGSV,3,1,11,78,54,052,17,70,07,305,21,79,56,158,20,69,56,336,23*65

$GLGSV,3,2,11,84,12,261,13,85,15,309,22,68,51,085,28,86,01,355,*6E

$GLGSV,3,3,11,77,07,025,,80,05,191,,67,04,111,*55

$GPGGA,151445.0,4228.483609,N,08310.476921,W,1,09,0.7,193.6,M,-34.0,M,,*6E

$GNGNS,151445.0,4228.483609,N,08310.476921,W,AA,16,0.7,193.6,-34.0,,*54

$GPVTG,86.9,T,86.9,M,63.5,N,117.7,K,A*13

$GPRMC,151445.0,A,4228.483609,N,08310.476921,W,63.5,86.9,290315,0.0,E,A*15

$GPGSA,A,2,04,11,12,14,18,22,24,25,31,,,,1.0,0.7,0.7*3A

$GNGSA,A,2,04,11,12,14,18,22,24,25,31,,,,1.0,0.7,0.7*24

$GNGSA,A,2,68,69,70,78,79,84,85,,,,,,1.0,0.7,0.7*2A

$GPGSV,4,1,13,04,24,303,21,11,11,307,21,12,23,087,29,14,65,295,25*71

$GPGSV,4,2,13,18,48,130,24,22,85,178,22,24,27,047,17,25,19,127,15*76

$GPGSV,4,3,13,31,21,208,23,32,14,305,20,51,,,30,01,06,326,*41

$GPGSV,4,4,13,21,01,174,*4B

$GLGSV,3,1,11,78,54,052,17,70,07,305,22,79,56,158,20,69,56,336,24*61

$GLGSV,3,2,11,84,12,261,13,85,15,309,23,68,51,085,28,86,01,355,*6F

$GLGSV,3,3,11,77,07,025,,80,05,191,,67,04,111,*55

$GPGGA,151446.0,4228.481138,N,08310.450136,W,1,09,0.7,192.6,M,-34.0,M,,*61

$GNGNS,151446.0,4228.481138,N,08310.450136,W,AA,16,0.7,192.6,-34.0,,*5B

$GPVTG,90.2,T,90.2,M,66.0,N,122.2,K,A*10

$GPRMC,151446.0,A,4228.481138,N,08310.450136,W,66.0,90.2,290315,0.0,E,A*17

$GPGSA,A,2,04,11,12,14,18,22,24,25,31,,,,1.0,0.7,0.7*3A

$GNGSA,A,2,04,11,12,14,18,22,24,25,31,,,,1.0,0.7,0.7*24

$GNGSA,A,2,68,69,70,78,79,84,85,,,,,,1.0,0.7,0.7*2A

$GPGSV,4,1,13,04,24,303,21,11,11,307,21,12,23,087,29,14,65,295,25*71

$GPGSV,4,2,13,18,48,130,25,22,85,178,23,24,27,047,18,25,19,127,15*79

$GPGSV,4,3,13,31,21,208,21,32,14,305,18,51,,,30,01,06,326,*48

$GPGSV,4,4,13,21,01,174,*4B

$GLGSV,3,1,11,78,54,052,17,70,07,305,20,79,56,158,21,69,56,336,23*65

$GLGSV,3,2,11,84,12,261,13,85,15,309,22,68,51,085,28,86,01,355,*6E

$GLGSV,3,3,11,77,07,025,,80,05,191,,67,04,111,*55

$GPGGA,151447.0,4228.479332,N,08310.427902,W,1,09,0.7,192.5,M,-34.0,M,,*63

$GNGNS,151447.0,4228.479332,N,08310.427902,W,AA,16,0.7,192.5,-34.0,,*59

$GPVTG,91.8,T,91.8,M,63.1,N,116.9,K,A*18

$GPRMC,151447.0,A,4228.479332,N,08310.427902,W,63.1,91.8,290315,0.0,E,A*19

$GPGSA,A,2,04,11,12,14,18,22,24,25,31,,,,1.0,0.7,0.7*3A

$GNGSA,A,2,04,11,12,14,18,22,24,25,31,,,,1.0,0.7,0.7*24

$GNGSA,A,2,68,69,70,78,79,84,85,,,,,,1.0,0.7,0.7*2A

$GPGSV,4,1,13,04,24,303,21,11,11,307,22,12,23,087,29,14,65,295,25*72

$GPGSV,4,2,13,18,48,130,24,22,85,178,22,24,27,047,19,25,19,127,15*78

$GPGSV,4,3,13,31,21,208,20,32,14,305,20,51,,,30,01,06,326,*42

$GPGSV,4,4,13,21,01,174,*4B

$GLGSV,3,1,11,78,54,052,15,70,07,305,20,79,56,158,20,69,56,336,23*66

$GLGSV,3,2,11,84,12,261,13,85,15,309,23,68,51,085,29,86,01,355,*6E

$GLGSV,3,3,11,77,07,025,,80,05,191,,67,04,111,*55

$GPGGA,151448.0,4228.479090,N,08310.405037,W,1,08,0.8,192.7,M,-34.0,M,,*64

$GNGNS,151448.0,4228.479090,N,08310.405037,W,AA,15,0.8,192.7,-34.0,,*5C

$GPVTG,90.9,T,90.9,M,63.4,N,117.4,K,A*11

$GPRMC,151448.0,A,4228.479090,N,08310.405037,W,63.4,90.9,290315,0.0,E,A*17

$GPGSA,A,2,04,11,12,14,18,22,24,31,,,,,1.1,0.8,0.7*33

$GNGSA,A,2,04,11,12,14,18,22,24,31,,,,,1.1,0.8,0.7*2D

$GNGSA,A,2,68,69,70,78,79,84,85,,,,,,1.1,0.8,0.7*24

$GPGSV,4,1,13,04,24,303,21,11,11,307,22,12,23,087,26,14,65,295,25*7D

$GPGSV,4,2,13,18,48,130,23,22,85,178,23,24,27,047,17,25,19,127,15*70

$GPGSV,4,3,13,31,21,208,21,32,14,305,19,51,,,30,01,06,326,*49

$GPGSV,4,4,13,21,01,174,*4B

$GLGSV,3,1,11,78,54,052,19,70,07,305,20,79,56,158,19,69,56,336,23*60

$GLGSV,3,2,11,84,12,261,13,85,15,309,24,68,51,085,28,86,01,355,*68

$GLGSV,3,3,11,77,07,025,,80,05,191,,67,04,111,*55

$GPGGA,151449.0,4228.478078,N,08310.381655,W,1,08,0.8,193.0,M,-34.0,M,,*6D

$GNGNS,151449.0,4228.478078,N,08310.381655,W,AA,14,0.8,193.0,-34.0,,*54

$GPVTG,89.6,T,89.6,M,63.6,N,117.9,K,A*1E

$GPRMC,151449.0,A,4228.478078,N,08310.381655,W,63.6,89.6,290315,0.0,E,A*1D

$GPGSA,A,2,04,11,12,14,18,22,24,31,,,,,1.1,0.8,0.8*3C

$GNGSA,A,2,04,11,12,14,18,22,24,31,,,,,1.1,0.8,0.8*22

$GNGSA,A,2,68,69,70,78,79,85,,,,,,,1.1,0.8,0.8*27

$GPGSV,4,1,13,04,24,303,21,11,11,307,20,12,23,087,21,14,65,295,18*76

$GPGSV,4,2,13,18,48,130,23,22,85,178,18,24,27,047,17,25,19,127,15*78

$GPGSV,4,3,13,31,21,208,21,32,14,305,19,51,,,30,01,06,326,*49

$GPGSV,4,4,13,21,01,174,*4B

$GLGSV,3,1,11,78,54,052,19,70,07,305,20,79,56,158,19,69,56,336,18*68

$GLGSV,3,2,11,84,12,261,13,85,15,309,21,68,51,085,28,86,01,355,*6D

$GLGSV,3,3,11,77,07,025,,80,05,191,,67,04,111,*55

$GPGGA,151450.0,4228.479933,N,08310.358501,W,1,08,0.8,190.7,M,-34.0,M,,*60

$GNGNS,151450.0,4228.479933,N,08310.358501,W,AA,14,0.8,190.7,-34.0,,*59

$GPVTG,88.1,T,88.1,M,65.0,N,120.5,K,A*16

$GPRMC,151450.0,A,4228.479933,N,08310.358501,W,65.0,88.1,290315,0.0,E,A*12

$GPGSA,A,2,04,11,12,14,18,22,24,31,,,,,1.1,0.8,0.8*3C

$GNGSA,A,2,04,11,12,14,18,22,24,31,,,,,1.1,0.8,0.8*22

$GNGSA,A,2,68,69,70,78,79,85,,,,,,,1.1,0.8,0.8*27

$GPGSV,4,1,13,04,24,303,18,11,11,307,20,12,23,087,27,14,65,295,24*75

$GPGSV,4,2,13,18,48,130,19,22,85,178,21,24,27,047,17,25,19,127,15*7B

$GPGSV,4,3,13,31,21,208,21,32,14,305,19,51,,,30,01,06,326,*49

$GPGSV,4,4,13,21,01,174,*4B

$GLGSV,3,1,11,78,54,052,19,70,07,305,20,79,56,158,17,69,56,336,22*6F

$GLGSV,3,2,11,84,12,261,13,85,15,309,22,68,51,085,25,86,01,355,*63

$GLGSV,3,3,11,77,07,025,,80,05,191,,67,04,111,*55

$GPGGA,151451.0,4228.481796,N,08310.333438,W,1,08,0.8,191.8,M,-34.0,M,,*6F

$GNGNS,151451.0,4228.481796,N,08310.333438,W,AA,14,0.8,191.8,-34.0,,*56

$GPVTG,87.3,T,87.3,M,65.9,N,122.0,K,A*18

$GPRMC,151451.0,A,4228.481796,N,08310.333438,W,65.9,87.3,290315,0.0,E,A*17

$GPGSA,A,2,04,11,12,14,18,22,24,31,,,,,1.1,0.8,0.8*3C

$GNGSA,A,2,04,11,12,14,18,22,24,31,,,,,1.1,0.8,0.8*22

$GNGSA,A,2,68,69,70,78,79,85,,,,,,,1.1,0.8,0.8*27

$GPGSV,4,1,13,04,24,303,22,11,11,307,18,12,23,087,28,14,65,295,25*79

$GPGSV,4,2,13,18,48,130,23,22,85,178,24,24,27,047,17,25,19,127,15*77

$GPGSV,4,3,13,31,21,208,15,32,14,305,18,51,,,30,01,06,326,*4F

$GPGSV,4,4,13,21,01,174,*4B

$GLGSV,3,1,11,78,54,052,16,70,07,305,20,79,56,158,21,69,56,336,24*63

$GLGSV,3,2,11,84,12,261,10,85,15,309,24,68,51,085,29,86,01,355,*6A

$GLGSV,3,3,11,77,07,025,,80,05,191,,67,04,111,*55

$GPGGA,151452.0,4228.484730,N,08310.307574,W,1,08,0.8,190.7,M,-34.0,M,,*65

$GNGNS,151452.0,4228.484730,N,08310.307574,W,AA,15,0.8,190.7,-34.0,,*5D

$GPVTG,85.8,T,85.8,M,66.9,N,123.8,K,A*12

$GPRMC,151452.0,A,4228.484730,N,08310.307574,W,66.9,85.8,290315,0.0,E,A*19

$GPGSA,A,2,04,11,12,14,18,22,24,31,,,,,1.1,0.8,0.7*33

$GNGSA,A,2,04,11,12,14,18,22,24,31,,,,,1.1,0.8,0.7*2D

$GNGSA,A,2,68,69,70,78,79,84,85,,,,,,1.1,0.8,0.7*24

$GPGSV,3,1,12,04,24,303,22,11,11,307,20,12,23,087,26,14,65,295,25*7A

$GPGSV,3,2,12,18,48,130,21,22,85,178,22,24,27,047,19,25,19,127,15*7B

$GPGSV,3,3,12,31,21,208,15,32,14,305,21,01,06,326,,21,01,174,*74

$GLGSV,3,1,11,78,54,052,16,70,07,305,20,79,56,158,19,69,56,336,23*6F

$GLGSV,3,2,11,84,12,261,10,85,15,309,22,68,51,085,28,86,01,355,*6D

$GLGSV,3,3,11,77,07,025,,80,05,191,,67,04,111,*55

$GPGGA,151453.0,4228.484217,N,08310.284275,W,1,08,0.8,189.8,M,-34.0,M,,*6F

$GNGNS,151453.0,4228.484217,N,08310.284275,W,AA,15,0.8,189.8,-34.0,,*57

$GPVTG,87.5,T,87.5,M,64.2,N,118.9,K,A*12

$GPRMC,151453.0,A,4228.484217,N,08310.284275,W,64.2,87.5,290315,0.0,E,A*12

$GPGSA,A,2,04,11,12,14,18,22,24,31,,,,,1.1,0.8,0.7*33

$GNGSA,A,2,04,11,12,14,18,22,24,31,,,,,1.1,0.8,0.7*2D

$GNGSA,A,2,68,69,70,78,79,84,85,,,,,,1.1,0.8,0.7*24

$GPGSV,3,1,12,04,25,303,23,11,11,307,19,12,23,087,28,14,65,296,26*7E

$GPGSV,3,2,12,18,48,130,22,22,85,172,22,24,26,047,19,25,20,127,15*79

$GPGSV,3,3,12,31,21,208,15,32,14,305,19,01,06,324,,21,00,172,*7A

$GLGSV,3,1,11,78,54,052,17,70,08,305,16,79,56,158,21,69,56,336,23*6F

$GLGSV,3,2,11,84,11,261,10,85,14,309,20,68,50,087,28,86,01,354,*6F

$GLGSV,3,3,11,77,06,025,,80,06,192,,67,03,112,*50

$GPGGA,151454.0,4228.483550,N,08310.259741,W,1,08,0.8,189.6,M,-34.0,M,,*67

$GNGNS,151454.0,4228.483550,N,08310.259741,W,AA,15,0.8,189.6,-34.0,,*5F

$GPVTG,88.0,T,88.0,M,64.5,N,119.5,K,A*18

$GPRMC,151454.0,A,4228.483550,N,08310.259741,W,64.5,88.0,290315,0.0,E,A*19

$GPGSA,A,2,04,11,12,14,18,22,24,31,,,,,1.1,0.8,0.7*33

$GNGSA,A,2,04,11,12,14,18,22,24,31,,,,,1.1,0.8,0.7*2D

$GNGSA,A,2,68,69,70,78,79,84,85,,,,,,1.1,0.8,0.7*24

$GPGSV,3,1,12,04,25,303,22,11,11,307,22,12,23,087,28,14,65,296,25*74

$GPGSV,3,2,12,18,48,130,21,22,85,172,23,24,26,047,21,25,20,127,15*70

$GPGSV,3,3,12,31,21,208,15,32,14,305,22,01,06,324,,21,00,172,*72

$GLGSV,3,1,11,78,54,052,17,70,08,305,16,79,56,158,22,69,56,336,24*6B

$GLGSV,3,2,11,84,11,261,15,85,14,309,25,68,50,087,28,86,01,354,*6F

$GLGSV,3,3,11,77,06,025,,80,06,192,,67,03,112,*50

$GPGGA,151455.0,4228.484492,N,08310.234750,W,1,08,0.8,188.5,M,-34.0,M,,*67

$GNGNS,151455.0,4228.484492,N,08310.234750,W,AA,15,0.8,188.5,-34.0,,*5F

$GPVTG,87.8,T,87.8,M,64.8,N,120.0,K,A*1A

$GPRMC,151455.0,A,4228.484492,N,08310.234750,W,64.8,87.8,290315,0.0,E,A*11

$GPGSA,A,2,04,11,12,14,18,22,24,31,,,,,1.1,0.8,0.7*33

$GNGSA,A,2,04,11,12,14,18,22,24,31,,,,,1.1,0.8,0.7*2D

$GNGSA,A,2,68,69,70,78,79,84,85,,,,,,1.1,0.8,0.7*24

$GPGSV,3,1,12,04,25,303,23,11,11,307,18,12,23,087,27,14,65,296,26*70

$GPGSV,3,2,12,18,48,130,22,22,85,172,22,24,26,047,20,25,20,127,15*73

$GPGSV,3,3,12,31,21,208,13,32,14,305,19,01,06,324,,21,00,172,*7C

$GLGSV,3,1,11,78,54,052,16,70,08,305,16,79,56,158,19,69,56,336,23*65

$GLGSV,3,2,11,84,11,261,15,85,14,309,22,68,50,087,27,86,01,354,*67

$GLGSV,3,3,11,77,06,025,,80,06,192,,67,03,112,*50

$GPGGA,151456.0,4228.486706,N,08310.210841,W,1,08,0.8,187.9,M,-34.0,M,,*62

$GNGNS,151456.0,4228.486706,N,08310.210841,W,AA,15,0.8,187.9,-34.0,,*5A

$GPVTG,87.5,T,87.5,M,64.6,N,119.6,K,A*18

$GPRMC,151456.0,A,4228.486706,N,08310.210841,W,64.6,87.5,290315,0.0,E,A*14

$GPGSA,A,2,04,11,12,14,18,22,24,31,,,,,1.1,0.8,0.7*33

$GNGSA,A,2,04,11,12,14,18,22,24,31,,,,,1.1,0.8,0.7*2D

$GNGSA,A,2,68,69,70,78,79,84,85,,,,,,1.1,0.8,0.7*24

$GPGSV,3,1,12,04,25,303,21,11,11,307,18,12,23,087,28,14,65,296,25*7E

$GPGSV,3,2,12,18,48,130,22,22,85,172,22,24,26,047,19,25,20,127,15*79

$GPGSV,3,3,12,31,21,208,13,32,14,305,19,01,06,324,,21,00,172,*7C

$GLGSV,3,1,11,78,54,052,16,70,08,305,16,79,56,158,21,69,56,336,23*6E

$GLGSV,3,2,11,84,11,261,15,85,14,309,22,68,50,087,28,86,01,354,*68

$GLGSV,3,3,11,77,06,025,,80,06,192,,67,03,112,*50

$GPGGA,151457.0,4228.489293,N,08310.186826,W,1,08,0.8,187.8,M,-34.0,M,,*69

$GNGNS,151457.0,4228.489293,N,08310.186826,W,AA,15,0.8,187.8,-34.0,,*51

$GPVTG,86.9,T,86.9,M,64.6,N,119.7,K,A*19

$GPRMC,151457.0,A,4228.489293,N,08310.186826,W,64.6,86.9,290315,0.0,E,A*13

$GPGSA,A,2,04,11,12,14,18,22,24,31,,,,,1.1,0.8,0.7*33

$GNGSA,A,2,04,11,12,14,18,22,24,31,,,,,1.1,0.8,0.7*2D

$GNGSA,A,2,68,69,70,78,79,84,85,,,,,,1.1,0.8,0.7*24

$GPGSV,3,1,12,04,25,303,21,11,11,307,21,12,23,087,28,14,65,296,25*74

$GPGSV,3,2,12,18,48,130,22,22,85,172,22,24,26,047,21,25,20,127,15*72

$GPGSV,3,3,12,31,21,208,13,32,14,305,18,01,06,324,,21,00,172,*7D

$GLGSV,3,1,11,78,54,052,16,70,08,305,16,79,56,158,21,69,56,336,23*6E

$GLGSV,3,2,11,84,11,261,15,85,14,309,21,68,50,087,28,86,01,354,*6B

$GLGSV,3,3,11,77,06,025,,80,06,192,,67,03,112,*50

$GPGGA,151458.0,4228.489941,N,08310.162245,W,1,08,0.8,187.9,M,-34.0,M,,*66

$GNGNS,151458.0,4228.489941,N,08310.162245,W,AA,15,0.8,187.9,-34.0,,*5E

$GPVTG,87.3,T,87.3,M,64.7,N,119.9,K,A*16

$GPRMC,151458.0,A,4228.489941,N,08310.162245,W,64.7,87.3,290315,0.0,E,A*17

$GPGSA,A,2,04,11,12,14,18,22,24,31,,,,,1.1,0.8,0.7*33

$GNGSA,A,2,04,11,12,14,18,22,24,31,,,,,1.1,0.8,0.7*2D

$GNGSA,A,2,68,69,70,78,79,84,85,,,,,,1.1,0.8,0.7*24

$GPGSV,3,1,12,04,25,303,20,11,11,307,23,12,23,087,28,14,65,296,26*74

$GPGSV,3,2,12,18,48,130,21,22,85,172,21,24,26,047,20,25,20,127,15*73

$GPGSV,3,3,12,31,21,208,13,32,14,305,18,01,06,324,,21,00,172,*7D

$GLGSV,3,1,11,78,54,052,16,70,08,305,15,79,56,158,19,69,56,336,24*61

$GLGSV,3,2,11,84,11,261,15,85,14,309,23,68,50,087,28,86,01,354,*69

$GLGSV,3,3,11,77,06,025,,80,06,192,,67,03,112,*50

$GPGGA,151459.0,4228.492247,N,08310.137974,W,1,08,0.8,187.9,M,-34.0,M,,*69

$GNGNS,151459.0,4228.492247,N,08310.137974,W,AA,15,0.8,187.9,-34.0,,*51

$GPVTG,86.2,T,86.2,M,64.7,N,119.8,K,A*17

$GPRMC,151459.0,A,4228.492247,N,08310.137974,W,64.7,86.2,290315,0.0,E,A*18

$GPGSA,A,2,04,11,12,14,18,22,24,31,,,,,1.1,0.8,0.7*33

$GNGSA,A,2,04,11,12,14,18,22,24,31,,,,,1.1,0.8,0.7*2D

$GNGSA,A,2,68,69,70,78,79,84,85,,,,,,1.1,0.8,0.7*24

$GPGSV,3,1,12,04,25,303,20,11,11,307,22,12,23,087,29,14,65,296,26*74

$GPGSV,3,2,12,18,48,130,21,22,85,172,21,24,26,047,20,25,20,127,15*73

$GPGSV,3,3,12,31,21,208,13,32,14,305,18,01,06,324,,21,00,172,*7D

$GLGSV,3,1,11,78,54,052,16,70,08,305,15,79,56,158,21,69,56,336,23*6D

$GLGSV,3,2,11,84,11,261,14,85,14,309,24,68,50,087,29,86,01,354,*6E

$GLGSV,3,3,11,77,06,025,,80,06,192,,67,03,112,*50

$GPGGA,151500.0,4228.491311,N,08310.114089,W,1,08,0.8,188.2,M,-34.0,M,,*6B

$GNGNS,151500.0,4228.491311,N,08310.114089,W,AA,15,0.8,188.2,-34.0,,*53

$GPVTG,87.8,T,87.8,M,64.6,N,119.6,K,A*18

$GPRMC,151500.0,A,4228.491311,N,08310.114089,W,64.6,87.8,290315,0.0,E,A*14

$GPGSA,A,2,04,11,12,14,18,22,24,31,,,,,1.1,0.8,0.7*33

$GNGSA,A,2,04,11,12,14,18,22,24,31,,,,,1.1,0.8,0.7*2D

$GNGSA,A,2,68,69,70,78,79,84,85,,,,,,1.1,0.8,0.7*24

$GPGSV,3,1,12,04,25,303,19,11,11,307,21,12,23,087,29,14,65,296,24*7F

$GPGSV,3,2,12,18,48,130,22,22,85,172,23,24,26,047,22,25,20,127,15*70

$GPGSV,3,3,12,31,21,208,13,32,14,305,21,01,06,324,,21,00,172,*77

$GLGSV,3,1,11,78,54,052,16,70,08,305,15,79,56,158,21,69,56,336,23*6D

$GLGSV,3,2,11,84,11,261,14,85,14,309,25,67,03,112,13,68,50,087,28*61

$GLGSV,3,3,11,86,01,354,,77,06,025,,80,06,192,*5D

$GPGGA,151501.0,4228.490693,N,08310.089597,W,1,08,0.8,190.2,M,-34.0,M,,*62

$GNGNS,151501.0,4228.490693,N,08310.089597,W,AA,15,0.8,190.2,-34.0,,*5A

$GPVTG,88.8,T,88.8,M,64.6,N,119.6,K,A*18

$GPRMC,151501.0,A,4228.490693,N,08310.089597,W,64.6,88.8,290315,0.0,E,A*1B

$GPGSA,A,2,04,11,12,14,18,22,24,31,,,,,1.1,0.8,0.7*33

$GNGSA,A,2,04,11,12,14,18,22,24,31,,,,,1.1,0.8,0.7*2D

$GNGSA,A,2,68,69,70,78,79,84,85,,,,,,1.1,0.8,0.7*24

$GPGSV,3,1,12,04,25,303,24,11,11,307,23,12,23,087,29,14,65,296,26*71

$GPGSV,3,2,12,18,48,130,24,22,85,172,26,24,26,047,23,25,20,127,15*72

$GPGSV,3,3,12,31,21,208,13,32,14,305,23,01,06,324,,21,00,172,*75

$GLGSV,3,1,11,78,54,052,17,70,08,305,17,79,56,158,19,69,56,336,22*64

$GLGSV,3,2,11,84,11,261,14,85,14,309,24,67,03,112,13,68,50,087,30*69

$GLGSV,3,3,11,86,01,354,,77,06,025,,80,06,192,*5D

$GPGGA,151502.0,4228.487512,N,08310.065416,W,1,08,0.8,190.9,M,-34.0,M,,*6C

$GNGNS,151502.0,4228.487512,N,08310.065416,W,AA,15,0.8,190.9,-34.0,,*54

$GPVTG,90.4,T,90.4,M,64.4,N,119.2,K,A*1E

$GPRMC,151502.0,A,4228.487512,N,08310.065416,W,64.4,90.4,290315,0.0,E,A*19

$GPGSA,A,2,04,11,12,14,18,22,24,31,,,,,1.1,0.8,0.7*33

$GNGSA,A,2,04,11,12,14,18,22,24,31,,,,,1.1,0.8,0.7*2D

$GNGSA,A,2,68,69,70,78,79,84,85,,,,,,1.1,0.8,0.7*24

$GPGSV,3,1,12,04,25,303,21,11,11,307,20,12,23,087,30,14,65,296,25*7C

$GPGSV,3,2,12,18,48,130,22,22,85,172,25,24,26,047,24,25,20,127,15*70

$GPGSV,3,3,12,31,21,208,18,32,14,305,20,01,06,324,,21,00,172,*7D

$GLGSV,3,1,11,78,54,052,17,70,08,305,19,79,56,158,17,69,56,336,22*64

$GLGSV,3,2,11,84,11,261,15,85,14,309,20,67,03,112,13,68,50,087,30*6C

$GLGSV,3,3,11,86,01,354,,77,06,025,,80,06,192,*5D

$GPGGA,151503.0,4228.487824,N,08310.041115,W,1,08,0.8,191.4,M,-34.0,M,,*69

$GNGNS,151503.0,4228.487824,N,08310.041115,W,AA,15,0.8,191.4,-34.0,,*51

$GPVTG,90.0,T,90.0,M,64.3,N,119.1,K,A*1A

$GPRMC,151503.0,A,4228.487824,N,08310.041115,W,64.3,90.0,290315,0.0,E,A*13

$GPGSA,A,2,04,11,12,14,18,22,24,31,,,,,1.1,0.8,0.7*33

$GNGSA,A,2,04,11,12,14,18,22,24,31,,,,,1.1,0.8,0.7*2D

$GNGSA,A,2,68,69,70,78,79,84,85,,,,,,1.1,0.8,0.7*24

$GPGSV,3,1,12,04,25,303,21,11,11,307,19,12,23,087,30,14,65,296,25*76

$GPGSV,3,2,12,18,48,130,21,22,85,172,27,24,26,047,23,25,20,127,15*76

$GPGSV,3,3,12,31,21,208,16,32,14,305,19,01,06,324,,21,00,172,*79

$GLGSV,3,1,11,78,54,052,16,70,08,305,20,79,56,158,19,69,56,336,23*60

$GLGSV,3,2,11,84,11,261,15,85,14,309,19,67,03,112,13,68,50,087,29*6E

$GLGSV,3,3,11,86,01,354,,77,06,025,,80,06,192,*5D

$GPGGA,151504.0,4228.487726,N,08310.016509,W,1,08,0.8,190.3,M,-34.0,M,,*6E

$GNGNS,151504.0,4228.487726,N,08310.016509,W,AA,15,0.8,190.3,-34.0,,*56

$GPVTG,90.3,T,90.3,M,64.5,N,119.5,K,A*18

$GPRMC,151504.0,A,4228.487726,N,08310.016509,W,64.5,90.3,290315,0.0,E,A*17

$GPGSA,A,2,04,11,12,14,18,22,24,31,,,,,1.1,0.8,0.7*33

$GNGSA,A,2,04,11,12,14,18,22,24,31,,,,,1.1,0.8,0.7*2D

$GNGSA,A,2,68,69,70,78,79,84,85,,,,,,1.1,0.8,0.7*24

$GPGSV,3,1,12,04,25,303,19,11,11,307,22,12,23,087,27,14,65,296,24*72

$GPGSV,3,2,12,18,48,130,20,22,85,172,27,24,26,047,21,25,20,127,12*72

$GPGSV,3,3,12,31,21,208,16,32,14,305,19,01,06,324,,21,00,172,*79

$GLGSV,3,1,11,78,54,052,16,70,08,305,20,79,56,158,19,69,56,336,22*61

$GLGSV,3,2,11,84,11,261,16,85,14,309,20,67,03,112,13,68,50,087,28*66

$GLGSV,3,3,11,86,01,354,,77,06,025,,80,06,192,*5D

$GPGGA,151505.0,4228.487114,N,08309.992156,W,1,09,0.7,191.6,M,-34.0,M,,*61

$GNGNS,151505.0,4228.487114,N,08309.992156,W,AA,16,0.7,191.6,-34.0,,*5B

$GPVTG,91.5,T,91.5,M,64.7,N,119.8,K,A*17

$GPRMC,151505.0,A,4228.487114,N,08309.992156,W,64.7,91.5,290315,0.0,E,A*17

$GPGSA,A,2,04,11,12,14,18,22,24,25,31,,,,1.0,0.7,0.7*3A

$GNGSA,A,2,04,11,12,14,18,22,24,25,31,,,,1.0,0.7,0.7*24

$GNGSA,A,2,68,69,70,78,79,84,85,,,,,,1.0,0.7,0.7*2A

$GPGSV,3,1,12,04,25,303,19,11,11,307,21,12,23,087,22,14,65,296,24*74

$GPGSV,3,2,12,18,48,130,20,22,85,172,21,24,26,047,21,25,20,127,12*74

$GPGSV,3,3,12,31,21,208,16,32,14,305,19,01,06,324,,21,00,172,*79

$GLGSV,3,1,11,78,54,052,16,70,08,305,16,79,56,158,19,69,56,336,22*64

$GLGSV,3,2,11,84,11,261,16,85,14,309,20,67,03,112,13,68,50,087,20*6E

$GLGSV,3,3,11,86,01,354,,77,06,025,,80,06,192,*5D

$GPGGA,151506.0,4228.486595,N,08309.968291,W,1,09,0.7,191.7,M,-34.0,M,,*62

$GNGNS,151506.0,4228.486595,N,08309.968291,W,AA,16,0.7,191.7,-34.0,,*58

$GPVTG,92.1,T,92.1,M,64.6,N,119.6,K,A*18

$GPRMC,151506.0,A,4228.486595,N,08309.968291,W,64.6,92.1,290315,0.0,E,A*13

$GPGSA,A,2,04,11,12,14,18,22,24,25,31,,,,1.0,0.7,0.7*3A

$GNGSA,A,2,04,11,12,14,18,22,24,25,31,,,,1.0,0.7,0.7*24

$GNGSA,A,2,68,69,70,78,79,84,85,,,,,,1.0,0.7,0.7*2A

$GPGSV,3,1,12,04,25,303,19,11,11,307,21,12,23,087,24,14,65,296,22*74

$GPGSV,3,2,12,18,48,130,20,22,85,172,27,24,26,047,18,25,20,127,12*78

$GPGSV,3,3,12,31,21,208,14,32,14,305,19,01,06,324,,21,00,172,*7B

$GLGSV,3,1,11,78,54,052,16,70,08,305,16,79,56,158,19,69,56,336,20*66

$GLGSV,3,2,11,84,11,261,16,85,14,309,20,67,03,112,12,68,50,087,26*69

$GLGSV,3,3,11,86,01,354,,77,06,025,,80,06,192,*5D

$GPGGA,151507.0,4228.484994,N,08309.943036,W,1,09,0.7,192.3,M,-34.0,M,,*6D

$GNGNS,151507.0,4228.484994,N,08309.943036,W,AA,16,0.7,192.3,-34.0,,*57

$GPVTG,94.0,T,94.0,M,65.8,N,121.9,K,A*13

$GPRMC,151507.0,A,4228.484994,N,08309.943036,W,65.8,94.0,290315,0.0,E,A*13

$GPGSA,A,2,04,11,12,14,18,22,24,25,31,,,,1.0,0.7,0.7*3A

$GNGSA,A,2,04,11,12,14,18,22,24,25,31,,,,1.0,0.7,0.7*24

$GNGSA,A,2,68,69,70,78,79,84,85,,,,,,1.0,0.7,0.7*2A

$GPGSV,3,1,12,04,25,303,16,11,11,307,21,12,23,087,22,14,65,296,25*7A

$GPGSV,3,2,12,18,48,130,20,22,85,172,26,24,26,047,19,25,20,127,12*78

$GPGSV,3,3,12,31,21,208,17,32,14,305,19,01,06,324,,21,00,172,*78

$GLGSV,3,1,11,78,54,052,16,70,08,305,16,79,56,158,12,69,56,336,21*6C

$GLGSV,3,2,11,84,11,261,16,85,14,309,20,67,03,112,12,68,50,087,25*6A

$GLGSV,3,3,11,86,01,354,,77,06,025,,80,06,192,*5D

$GPGGA,151508.0,4228.482539,N,08309.919368,W,1,09,0.7,192.7,M,-34.0,M,,*6C

$GNGNS,151508.0,4228.482539,N,08309.919368,W,AA,16,0.7,192.7,-34.0,,*56

$GPVTG,96.4,T,96.4,M,64.6,N,119.7,K,A*19

$GPRMC,151508.0,A,4228.482539,N,08309.919368,W,64.6,96.4,290315,0.0,E,A*1F

$GPGSA,A,2,04,11,12,14,18,22,24,25,31,,,,1.0,0.7,0.7*3A

$GNGSA,A,2,04,11,12,14,18,22,24,25,31,,,,1.0,0.7,0.7*24

$GNGSA,A,2,68,69,70,78,79,84,85,,,,,,1.0,0.7,0.7*2A

$GPGSV,3,1,12,04,25,303,16,11,11,307,21,12,23,087,20,14,65,296,26*7B

$GPGSV,3,2,12,18,48,130,20,22,85,172,27,24,26,047,19,25,20,127,12*79

$GPGSV,3,3,12,31,21,208,17,32,14,305,19,01,06,324,,21,00,172,*78

$GLGSV,3,1,11,78,54,052,13,70,08,305,16,79,56,158,12,69,56,336,20*68

$GLGSV,3,2,11,84,11,261,16,85,14,309,14,67,03,112,12,68,50,087,22*6A

$GLGSV,3,3,11,86,01,354,,77,06,025,,80,06,192,*5D

$GPGGA,151509.0,4228.479718,N,08309.895214,W,1,09,0.7,193.2,M,-34.0,M,,*63

$GNGNS,151509.0,4228.479718,N,08309.895214,W,AA,16,0.7,193.2,-34.0,,*59

$GPVTG,96.8,T,96.8,M,64.8,N,120.0,K,A*1A

$GPRMC,151509.0,A,4228.479718,N,08309.895214,W,64.8,96.8,290315,0.0,E,A*16

$GPGSA,A,2,04,11,12,14,18,22,24,25,31,,,,1.0,0.7,0.7*3A

$GNGSA,A,2,04,11,12,14,18,22,24,25,31,,,,1.0,0.7,0.7*24

$GNGSA,A,2,68,69,70,78,79,84,85,,,,,,1.0,0.7,0.7*2A

$GPGSV,3,1,12,04,25,303,16,11,11,307,14,12,23,087,23,14,65,296,25*7D

$GPGSV,3,2,12,18,48,130,15,22,85,172,26,24,26,047,19,25,20,127,12*7E

$GPGSV,3,3,12,31,21,208,17,32,14,305,14,01,06,324,,21,00,172,*75

$GLGSV,3,1,11,78,54,052,13,70,08,305,16,79,56,158,17,69,56,336,21*6C

$GLGSV,3,2,11,84,11,261,13,85,14,309,14,67,03,112,12,68,50,087,21*6C

$GLGSV,3,3,11,86,01,354,,77,06,025,,80,06,192,*5D

$GPGGA,151510.0,4228.476048,N,08309.872102,W,1,09,0.7,193.4,M,-34.0,M,,*6D

$GNGNS,151510.0,4228.476048,N,08309.872102,W,AA,16,0.7,193.4,-34.0,,*57

$GPVTG,99.5,T,99.5,M,64.5,N,119.4,K,A*19

$GPRMC,151510.0,A,4228.476048,N,08309.872102,W,64.5,99.5,290315,0.0,E,A*11

$GPGSA,A,2,04,11,12,14,18,22,24,25,31,,,,1.0,0.7,0.7*3A

$GNGSA,A,2,04,11,12,14,18,22,24,25,31,,,,1.0,0.7,0.7*24

$GNGSA,A,2,68,69,70,78,79,84,85,,,,,,1.0,0.7,0.7*2A

$GPGSV,3,1,12,04,25,303,16,11,11,307,14,12,23,087,22,14,65,296,25*7C

$GPGSV,3,2,12,18,48,130,19,22,85,172,24,24,26,047,19,25,20,127,12*70

$GPGSV,3,3,12,31,21,208,17,32,14,305,14,01,06,324,,21,00,172,*75

$GLGSV,3,1,11,78,54,052,13,70,08,305,13,79,56,158,17,69,56,336,20*68

$GLGSV,3,2,11,84,11,261,13,85,14,309,16,67,03,112,12,68,50,087,19*65

$GLGSV,3,3,11,86,01,354,,77,06,025,,80,06,192,*5D

$GPGGA,151511.0,4228.474074,N,08309.847772,W,1,09,0.7,192.8,M,-34.0,M,,*6B

$GNGNS,151511.0,4228.474074,N,08309.847772,W,AA,16,0.7,192.8,-34.0,,*51

$GPVTG,99.9,T,99.9,M,64.1,N,118.7,K,A*1F

$GPRMC,151511.0,A,4228.474074,N,08309.847772,W,64.1,99.9,290315,0.0,E,A*12

$GPGSA,A,2,04,11,12,14,18,22,24,25,31,,,,1.0,0.7,0.7*3A

$GNGSA,A,2,04,11,12,14,18,22,24,25,31,,,,1.0,0.7,0.7*24

$GNGSA,A,2,68,69,70,78,79,84,85,,,,,,1.0,0.7,0.7*2A

$GPGSV,3,1,12,04,25,303,16,11,11,307,14,12,23,087,24,14,65,296,25*7A

$GPGSV,3,2,12,18,48,130,21,22,85,172,24,24,26,047,19,25,20,127,14*7D

$GPGSV,3,3,12,31,21,208,17,32,14,305,14,01,06,324,,21,00,172,*75

$GLGSV,3,1,11,78,54,052,16,70,08,305,13,79,56,158,17,69,56,336,23*6E

$GLGSV,3,2,11,84,11,261,13,85,14,309,18,67,03,112,12,68,50,087,24*65

$GLGSV,3,3,11,86,01,354,,77,06,025,,80,06,192,*5D

$GPGGA,151512.0,4228.471182,N,08309.823476,W,1,09,0.7,193.6,M,-34.0,M,,*6F

$GNGNS,151512.0,4228.471182,N,08309.823476,W,AA,16,0.7,193.6,-34.0,,*55

$GPVTG,99.6,T,99.6,M,65.2,N,120.8,K,A*19

$GPRMC,151512.0,A,4228.471182,N,08309.823476,W,65.2,99.6,290315,0.0,E,A*14

$GPGSA,A,2,04,11,12,14,18,22,24,25,31,,,,1.0,0.7,0.7*3A

$GNGSA,A,2,04,11,12,14,18,22,24,25,31,,,,1.0,0.7,0.7*24

$GNGSA,A,2,68,69,70,78,79,84,85,,,,,,1.0,0.7,0.7*2A

$GPGSV,3,1,12,04,25,303,19,11,11,307,14,12,23,087,21,14,65,296,24*71

$GPGSV,3,2,12,18,48,130,21,22,85,172,23,24,26,047,13,25,20,127,14*70

$GPGSV,3,3,12,31,21,208,17,32,14,305,14,01,06,324,,21,00,172,*75

$GLGSV,3,1,11,78,54,052,16,70,08,305,13,79,56,158,17,69,56,336,25*68

$GLGSV,3,2,11,84,11,261,13,85,14,309,18,67,03,112,12,68,50,087,26*67

$GLGSV,3,3,11,86,01,354,,77,06,025,,80,06,192,*5D

$GPGGA,151513.0,4228.467932,N,08309.799715,W,1,09,0.7,193.6,M,-34.0,M,,*62

$GNGNS,151513.0,4228.467932,N,08309.799715,W,AA,16,0.7,193.6,-34.0,,*58

$GPVTG,99.4,T,99.4,M,65.5,N,121.2,K,A*15

$GPRMC,151513.0,A,4228.467932,N,08309.799715,W,65.5,99.4,290315,0.0,E,A*1C

$GPGSA,A,2,04,11,12,14,18,22,24,25,31,,,,1.0,0.7,0.7*3A

$GNGSA,A,2,04,11,12,14,18,22,24,25,31,,,,1.0,0.7,0.7*24

$GNGSA,A,2,68,69,70,78,79,84,85,,,,,,1.0,0.7,0.7*2A

$GPGSV,3,1,12,04,25,303,18,11,11,307,14,12,23,087,17,14,65,296,24*75

$GPGSV,3,2,12,18,48,130,24,22,85,172,18,24,26,047,17,25,20,127,14*79

$GPGSV,3,3,12,31,21,208,17,32,14,305,15,01,06,324,,21,00,172,*74

$GLGSV,3,1,11,78,54,052,17,70,08,305,15,79,56,158,17,69,56,336,26*6C

$GLGSV,3,2,11,84,11,261,13,85,14,309,18,67,03,112,12,68,50,087,29*68

$GLGSV,3,3,11,86,01,354,,77,06,025,,80,06,192,*5D

$GPGGA,151514.0,4228.466552,N,08309.774575,W,1,09,0.7,193.1,M,-34.0,M,,*6E

$GNGNS,151514.0,4228.466552,N,08309.774575,W,AA,16,0.7,193.1,-34.0,,*54

$GPVTG,97.0,T,97.0,M,66.6,N,123.3,K,A*16

$GPRMC,151514.0,A,4228.466552,N,08309.774575,W,66.6,97.0,290315,0.0,E,A*1D

$GPGSA,A,2,04,11,12,14,18,22,24,25,31,,,,1.0,0.7,0.7*3A

$GNGSA,A,2,04,11,12,14,18,22,24,25,31,,,,1.0,0.7,0.7*24

$GNGSA,A,2,68,69,70,78,79,84,85,,,,,,1.0,0.7,0.7*2A

$GPGSV,3,1,12,04,25,303,18,11,11,307,14,12,23,087,22,14,65,296,24*73

$GPGSV,3,2,12,18,48,130,21,22,85,172,18,24,26,047,17,25,20,127,14*7C

$GPGSV,3,3,12,31,21,208,17,32,14,305,15,01,06,324,,21,00,172,*74

$GLGSV,3,1,11,78,54,052,17,70,08,305,15,79,56,158,15,69,56,336,25*6D

$GLGSV,3,2,11,84,11,261,13,85,14,309,13,67,03,112,12,68,50,087,29*63

$GLGSV,3,3,11,86,01,354,,77,06,025,,80,06,192,*5D

$GPGGA,151515.0,4228.463386,N,08309.749799,W,1,08,0.9,192.7,M,-34.0,M,,*63

$GNGNS,151515.0,4228.463386,N,08309.749799,W,AA,15,0.9,192.7,-34.0,,*5B

$GPVTG,98.8,T,98.8,M,65.7,N,121.8,K,A*1D

$GPRMC,151515.0,A,4228.463386,N,08309.749799,W,65.7,98.8,290315,0.0,E,A*1D

$GPGSA,A,2,04,11,12,14,18,22,24,25,,,,,1.1,0.9,0.7*37

$GNGSA,A,2,04,11,12,14,18,22,24,25,,,,,1.1,0.9,0.7*29

$GNGSA,A,2,68,69,70,78,79,84,85,,,,,,1.1,0.9,0.7*25

$GPGSV,3,1,12,04,25,303,17,11,11,307,14,12,23,087,27,14,65,296,25*78

$GPGSV,3,2,12,18,48,130,22,22,85,172,18,24,26,047,17,25,20,127,14*7F

$GPGSV,3,3,12,31,21,208,17,32,14,305,16,01,06,324,,21,00,172,*77

$GLGSV,3,1,11,78,54,052,17,70,08,305,15,79,56,158,19,69,56,336,26*62

$GLGSV,3,2,11,84,11,261,13,85,14,309,13,67,03,112,12,68,50,087,29*63

$GLGSV,3,3,11,86,01,354,,77,06,025,,80,06,192,*5D

$GPGGA,151516.0,4228.462325,N,08309.725291,W,1,08,0.9,193.9,M,-34.0,M,,*60

$GNGNS,151516.0,4228.462325,N,08309.725291,W,AA,15,0.9,193.9,-34.0,,*58

$GPVTG,98.2,T,98.2,M,65.5,N,121.3,K,A*14

$GPRMC,151516.0,A,4228.462325,N,08309.725291,W,65.5,98.2,290315,0.0,E,A*19

$GPGSA,A,2,04,11,12,14,18,22,24,25,,,,,1.1,0.9,0.7*37

$GNGSA,A,2,04,11,12,14,18,22,24,25,,,,,1.1,0.9,0.7*29

$GNGSA,A,2,68,69,70,78,79,84,85,,,,,,1.1,0.9,0.7*25

$GPGSV,3,1,12,04,25,303,21,11,11,307,18,12,23,087,29,14,65,296,26*7C

$GPGSV,3,2,12,18,48,130,22,22,85,172,18,24,26,047,17,25,20,127,14*7F

$GPGSV,3,3,12,31,21,208,17,32,14,305,16,01,06,324,,21,00,172,*77

$GLGSV,3,1,11,78,54,052,17,70,08,305,15,79,56,158,21,69,56,336,26*69

$GLGSV,3,2,11,84,11,261,13,85,14,309,13,67,03,112,12,68,50,087,29*63

$GLGSV,3,3,11,86,01,354,,77,06,025,,80,06,192,*5D

$GPGGA,151517.0,4228.460886,N,08309.700863,W,1,08,1.0,195.1,M,-34.0,M,,*67

$GNGNS,151517.0,4228.460886,N,08309.700863,W,AA,14,1.0,195.1,-34.0,,*5E

$GPVTG,97.5,T,97.5,M,65.2,N,120.7,K,A*16

$GPRMC,151517.0,A,4228.460886,N,08309.700863,W,65.2,97.5,290315,0.0,E,A*17

$GPGSA,A,2,04,11,12,14,18,22,24,25,,,,,1.2,1.0,0.7*3C

$GNGSA,A,2,04,11,12,14,18,22,24,25,,,,,1.2,1.0,0.7*22

$GNGSA,A,2,68,69,70,78,79,85,,,,,,,1.2,1.0,0.7*22

$GPGSV,3,1,12,04,25,303,20,11,11,307,23,12,23,087,29,14,65,296,26*75

$GPGSV,3,2,12,18,48,130,22,22,85,172,18,24,26,047,16,25,20,127,14*7E

$GPGSV,3,3,12,31,21,208,17,32,14,305,17,01,06,324,,21,00,172,*76

$GLGSV,3,1,11,78,54,052,14,70,08,305,15,79,56,158,22,69,56,336,26*69

$GLGSV,3,2,11,84,11,261,13,85,14,309,17,67,03,112,12,68,50,087,29*67

$GLGSV,3,3,11,86,01,354,,77,06,025,,80,06,192,*5D

$GPGGA,151518.0,4228.458660,N,08309.675641,W,1,08,1.0,193.5,M,-34.0,M,,*6A

$GNGNS,151518.0,4228.458660,N,08309.675641,W,AA,14,1.0,193.5,-34.0,,*53

$GPVTG,97.2,T,97.2,M,66.2,N,122.7,K,A*17

$GPRMC,151518.0,A,4228.458660,N,08309.675641,W,66.2,97.2,290315,0.0,E,A*1C

$GPGSA,A,2,04,11,12,14,18,22,24,25,,,,,1.2,1.0,0.7*3C

$GNGSA,A,2,04,11,12,14,18,22,24,25,,,,,1.2,1.0,0.7*22

$GNGSA,A,2,68,69,70,78,79,85,,,,,,,1.2,1.0,0.7*22

$GPGSV,3,1,12,04,25,303,18,11,11,307,21,12,23,087,29,14,65,296,25*7F

$GPGSV,3,2,12,18,48,130,20,22,85,172,16,24,26,047,18,25,20,127,14*7C

$GPGSV,3,3,12,31,21,208,17,32,14,305,17,01,06,324,,21,00,172,*76

$GLGSV,3,1,11,78,54,052,14,70,08,305,15,79,56,158,21,69,56,336,24*68

$GLGSV,3,2,11,84,11,261,13,85,14,309,21,67,03,112,12,68,50,087,28*63

$GLGSV,3,3,11,86,01,354,,77,06,025,,80,06,192,*5D

$GPGGA,151519.0,4228.462131,N,08309.652034,W,1,07,1.1,196.0,M,-34.0,M,,*6E

$GNGNS,151519.0,4228.462131,N,08309.652034,W,AA,13,1.1,196.0,-34.0,,*5F

$GPVTG,92.8,T,92.8,M,64.9,N,120.2,K,A*19

$GPRMC,151519.0,A,4228.462131,N,08309.652034,W,64.9,92.8,290315,0.0,E,A*10

$GPGSA,A,2,04,11,12,14,18,22,24,,,,,,1.3,1.1,0.8*34

$GNGSA,A,2,04,11,12,14,18,22,24,,,,,,1.3,1.1,0.8*2A

$GNGSA,A,2,68,69,70,78,79,85,,,,,,,1.3,1.1,0.8*2D

$GPGSV,3,1,12,04,25,303,18,11,11,307,23,12,23,087,29,14,65,296,25*7D

$GPGSV,3,2,12,18,48,130,22,22,85,172,22,24,26,047,20,25,20,127,14*72

$GPGSV,3,3,12,32,14,305,19,01,06,324,,21,00,172,,31,21,208,*7E

$GLGSV,3,1,11,78,54,052,14,70,08,305,15,79,56,158,22,69,56,336,24*6B

$GLGSV,3,2,11,84,11,261,13,85,14,309,21,67,03,112,12,68,50,087,29*62

$GLGSV,3,3,11,86,01,354,,77,06,025,,80,06,192,*5D

$GPGGA,151520.0,4228.459928,N,08309.629565,W,1,07,1.1,194.7,M,-34.0,M,,*64

$GNGNS,151520.0,4228.459928,N,08309.629565,W,AA,13,1.1,194.7,-34.0,,*55

$GPVTG,92.6,T,92.6,M,64.3,N,119.1,K,A*1A

$GPRMC,151520.0,A,4228.459928,N,08309.629565,W,64.3,92.6,290315,0.0,E,A*1B

$GPGSA,A,2,04,11,12,14,18,22,24,,,,,,1.3,1.1,0.8*34

$GNGSA,A,2,04,11,12,14,18,22,24,,,,,,1.3,1.1,0.8*2A

$GNGSA,A,2,68,69,70,78,79,85,,,,,,,1.3,1.1,0.8*2D

$GPGSV,3,1,12,04,25,303,18,11,11,307,23,12,23,087,22,14,65,296,23*70

$GPGSV,3,2,12,18,48,130,20,22,85,172,19,24,26,047,17,25,20,127,14*7C

$GPGSV,3,3,12,32,14,305,19,01,06,324,,21,00,172,,31,21,208,*7E

$GLGSV,3,1,11,78,54,052,15,70,08,305,15,79,56,158,20,69,56,336,22*6E

$GLGSV,3,2,11,84,11,261,13,85,14,309,23,67,03,112,12,68,50,087,26*6F

$GLGSV,3,3,11,86,01,354,,77,06,025,,80,06,192,*5D

$GPGGA,151521.0,4228.462536,N,08309.607232,W,1,07,1.1,192.4,M,-34.0,M,,*62

$GNGNS,151521.0,4228.462536,N,08309.607232,W,AA,12,1.1,192.4,-34.0,,*52

$GPVTG,88.9,T,88.9,M,63.5,N,117.6,K,A*12

$GPRMC,151521.0,A,4228.462536,N,08309.607232,W,63.5,88.9,290315,0.0,E,A*1D

$GPGSA,A,2,04,11,12,14,18,22,24,,,,,,1.4,1.1,0.8*33

$GNGSA,A,2,04,11,12,14,18,22,24,,,,,,1.4,1.1,0.8*2D

$GNGSA,A,2,68,69,78,79,85,,,,,,,,1.4,1.1,0.8*2D

$GPGSV,3,1,12,04,25,303,18,11,11,307,23,12,24,087,29,14,65,296,22*7D

$GPGSV,3,2,12,18,48,130,22,22,85,171,22,24,26,047,22,25,20,127,14*73

$GPGSV,3,3,12,32,15,305,19,01,07,324,,21,00,172,,31,22,208,*7D

$GLGSV,3,1,11,78,54,050,15,70,08,305,15,79,57,158,20,69,57,337,21*6E

$GLGSV,3,2,11,84,11,261,13,85,14,307,18,67,03,112,12,68,50,087,29*66

$GLGSV,3,3,11,86,01,354,,77,06,025,,80,06,192,*5D

$GPGGA,151522.0,4228.463640,N,08309.584005,W,1,07,1.1,191.6,M,-34.0,M,,*6D

$GNGNS,151522.0,4228.463640,N,08309.584005,W,AA,12,1.1,191.6,-34.0,,*5D

$GPVTG,88.5,T,88.5,M,63.1,N,116.9,K,A*18

$GPRMC,151522.0,A,4228.463640,N,08309.584005,W,63.1,88.5,290315,0.0,E,A*1B

$GPGSA,A,2,04,11,12,14,18,22,24,,,,,,1.4,1.1,0.8*33

$GNGSA,A,2,04,11,12,14,18,22,24,,,,,,1.4,1.1,0.8*2D

$GNGSA,A,2,68,69,78,79,85,,,,,,,,1.4,1.1,0.8*2D

$GPGSV,3,1,12,04,25,303,19,11,11,307,18,12,24,087,29,14,65,296,25*73

$GPGSV,3,2,12,18,48,130,21,22,85,171,22,24,26,047,20,25,20,127,14*72

$GPGSV,3,3,12,32,15,305,15,01,07,324,,21,00,172,,31,22,208,*71

$GLGSV,3,1,11,78,54,050,15,70,08,305,15,79,57,158,22,69,57,337,24*69

$GLGSV,3,2,11,84,11,261,13,85,14,307,23,67,03,112,12,68,50,087,29*6E

$GLGSV,3,3,11,86,01,354,,77,06,025,,80,06,192,*5D

$GPGGA,151523.0,4228.466320,N,08309.559973,W,1,07,1.1,192.9,M,-34.0,M,,*6E

$GNGNS,151523.0,4228.466320,N,08309.559973,W,AA,12,1.1,192.9,-34.0,,*5E

$GPVTG,87.3,T,87.3,M,64.4,N,119.4,K,A*18

$GPRMC,151523.0,A,4228.466320,N,08309.559973,W,64.4,87.3,290315,0.0,E,A*1F

$GPGSA,A,2,04,11,12,14,18,22,24,,,,,,1.4,1.1,0.8*33

$GNGSA,A,2,04,11,12,14,18,22,24,,,,,,1.4,1.1,0.8*2D

$GNGSA,A,2,68,69,78,79,85,,,,,,,,1.4,1.1,0.8*2D

$GPGSV,3,1,12,04,25,303,21,11,11,307,22,12,24,087,29,14,65,296,25*71

$GPGSV,3,2,12,18,48,130,21,22,85,171,20,24,26,047,20,25,20,127,12*76

$GPGSV,3,3,12,32,15,305,19,01,07,324,,21,00,172,,31,22,208,*7D

$GLGSV,3,1,11,78,54,050,15,70,08,305,13,79,57,158,23,69,57,337,24*6E

$GLGSV,3,2,11,84,11,261,13,85,14,307,23,67,03,112,12,68,50,087,29*6E

$GLGSV,3,3,11,86,01,354,,77,06,025,,80,06,192,*5D

$GPGGA,151524.0,4228.466842,N,08309.534598,W,1,08,1.0,192.5,M,-34.0,M,,*66

$GNGNS,151524.0,4228.466842,N,08309.534598,W,AA,14,1.0,192.5,-34.0,,*5F

$GPVTG,87.5,T,87.5,M,64.9,N,120.2,K,A*19

$GPRMC,151524.0,A,4228.466842,N,08309.534598,W,64.9,87.5,290315,0.0,E,A*1E

$GPGSA,A,2,04,11,12,14,18,22,24,25,,,,,1.2,1.0,0.7*3C

$GNGSA,A,2,04,11,12,14,18,22,24,25,,,,,1.2,1.0,0.7*22

$GNGSA,A,2,68,69,70,78,79,85,,,,,,,1.2,1.0,0.7*22

$GPGSV,3,1,12,04,25,303,20,11,11,307,22,12,24,087,29,14,65,296,25*70

$GPGSV,3,2,12,18,48,130,21,22,85,171,22,24,26,047,21,25,20,127,12*75

$GPGSV,3,3,12,31,22,208,17,32,15,305,20,01,07,324,,21,00,172,*71

$GLGSV,3,1,11,78,54,050,14,70,08,305,19,79,57,158,22,69,57,337,24*64

$GLGSV,3,2,11,84,11,261,13,85,14,307,23,67,03,112,12,68,50,087,28*6F

$GLGSV,3,3,11,86,01,354,,77,06,025,,80,06,192,*5D

$GPGGA,151525.0,4228.467456,N,08309.511838,W,1,09,0.8,190.4,M,-34.0,M,,*64

$GNGNS,151525.0,4228.467456,N,08309.511838,W,AA,15,0.8,190.4,-34.0,,*5D

$GPVTG,87.6,T,87.6,M,63.4,N,117.5,K,A*10

$GPRMC,151525.0,A,4228.467456,N,08309.511838,W,63.4,87.6,290315,0.0,E,A*1E

$GPGSA,A,2,04,11,12,14,18,22,24,25,31,,,,1.1,0.8,0.7*34

$GNGSA,A,2,04,11,12,14,18,22,24,25,31,,,,1.1,0.8,0.7*2A

$GNGSA,A,2,68,69,70,78,79,85,,,,,,,1.1,0.8,0.7*28

$GPGSV,3,1,12,04,25,303,19,11,11,307,19,12,24,087,28,14,65,296,24*72

$GPGSV,3,2,12,18,48,130,20,22,85,171,19,24,26,047,18,25,20,127,12*76

$GPGSV,3,3,12,31,22,208,18,32,15,305,18,01,07,324,,21,00,172,*75

$GLGSV,3,1,11,78,54,050,14,70,08,305,19,79,57,158,21,69,57,337,22*61

$GLGSV,3,2,11,84,11,261,13,85,14,307,22,67,03,112,12,68,50,087,27*61

$GLGSV,3,3,11,86,01,354,,77,06,025,,80,06,192,*5D

$GPGGA,151526.0,4228.464803,N,08309.488647,W,1,09,0.8,190.3,M,-34.0,M,,*68

$GNGNS,151526.0,4228.464803,N,08309.488647,W,AA,15,0.8,190.3,-34.0,,*51

$GPVTG,89.8,T,89.8,M,63.3,N,117.2,K,A*10

$GPRMC,151526.0,A,4228.464803,N,08309.488647,W,63.3,89.8,290315,0.0,E,A*12

$GPGSA,A,2,04,11,12,14,18,22,24,25,31,,,,1.1,0.8,0.7*34

$GNGSA,A,2,04,11,12,14,18,22,24,25,31,,,,1.1,0.8,0.7*2A

$GNGSA,A,2,68,69,70,78,79,85,,,,,,,1.1,0.8,0.7*28

$GPGSV,3,1,12,04,25,303,21,11,11,307,21,12,24,087,28,14,65,296,25*73

$GPGSV,3,2,12,18,48,130,21,22,85,171,22,24,26,047,19,25,20,127,12*7E

$GPGSV,3,3,12,31,22,208,18,32,15,305,18,01,07,324,,21,00,172,*75

$GLGSV,3,1,11,78,54,050,14,70,08,305,19,79,57,158,22,69,57,337,23*63

$GLGSV,3,2,11,84,11,261,13,85,14,307,23,67,03,112,12,68,50,087,28*6F

$GLGSV,3,3,11,86,01,354,,77,06,025,,80,06,192,*5D

$GPGGA,151527.0,4228.467018,N,08309.462723,W,1,09,0.8,190.4,M,-34.0,M,,*68

$GNGNS,151527.0,4228.467018,N,08309.462723,W,AA,15,0.8,190.4,-34.0,,*51

$GPVTG,88.5,T,88.5,M,64.8,N,120.1,K,A*1B

$GPRMC,151527.0,A,4228.467018,N,08309.462723,W,64.8,88.5,290315,0.0,E,A*15

$GPGSA,A,2,04,11,12,14,18,22,24,25,31,,,,1.1,0.8,0.7*34

$GNGSA,A,2,04,11,12,14,18,22,24,25,31,,,,1.1,0.8,0.7*2A

$GNGSA,A,2,68,69,70,78,79,85,,,,,,,1.1,0.8,0.7*28

$GPGSV,3,1,12,04,25,303,21,11,11,307,23,12,24,087,30,14,65,296,25*78

$GPGSV,3,2,12,18,48,130,23,22,85,171,22,24,26,047,18,25,20,127,12*7D

$GPGSV,3,3,12,31,22,208,17,32,15,305,19,01,07,324,,21,00,172,*7B

$GLGSV,3,1,11,78,54,050,14,70,08,305,18,79,57,158,23,69,57,337,24*64

$GLGSV,3,2,11,84,11,261,13,85,14,307,24,67,03,112,12,68,50,087,30*61

$GLGSV,3,3,11,86,01,354,,77,06,025,,80,06,192,*5D

$GPGGA,151528.0,4228.465748,N,08309.438361,W,1,09,0.8,189.8,M,-34.0,M,,*6E

$GNGNS,151528.0,4228.465748,N,08309.438361,W,AA,15,0.8,189.8,-34.0,,*57

$GPVTG,89.4,T,89.4,M,63.6,N,117.8,K,A*1F

$GPRMC,151528.0,A,4228.465748,N,08309.438361,W,63.6,89.4,290315,0.0,E,A*1E

$GPGSA,A,2,04,11,12,14,18,22,24,25,31,,,,1.1,0.8,0.7*34

$GNGSA,A,2,04,11,12,14,18,22,24,25,31,,,,1.1,0.8,0.7*2A

$GNGSA,A,2,68,69,70,78,79,85,,,,,,,1.1,0.8,0.7*28

$GPGSV,3,1,12,04,25,303,20,11,11,307,23,12,24,087,28,14,65,296,24*71

$GPGSV,3,2,12,18,48,130,23,22,85,171,21,24,26,047,18,25,20,127,14*78

$GPGSV,3,3,12,31,22,208,17,32,15,305,19,01,07,324,,21,00,172,*7B

$GLGSV,3,1,11,78,54,050,14,70,08,305,21,79,57,158,22,69,57,337,23*68

$GLGSV,3,2,11,84,11,261,13,85,14,307,26,67,03,112,12,68,50,087,28*6A

$GLGSV,3,3,11,86,01,354,,77,06,025,,80,06,192,*5D

$GPGGA,151529.0,4228.467003,N,08309.414487,W,1,09,0.8,186.0,M,-34.0,M,,*63

